[
  {"nome": "Aracaju", "estado": "SE", "latitude": -10.916667, "longitude": -37.066667},
  {"nome": "Belém", "estado": "PA", "latitude": -1.455020, "longitude": -48.502403},
  {"nome": "Belo Horizonte", "estado": "MG", "latitude": -19.916681, "longitude": -43.934494},
  {"nome": "Boa Vista", "estado": "RR", "latitude": 2.82384, "longitude": -60.6753},
  {"nome": "Brasília", "estado": "DF", "latitude": -15.794229, "longitude": -47.882166},
  {"nome": "Campo Grande", "estado": "MS", "latitude": -20.469711, "longitude": -54.620121},
  {"nome": "Cuiabá", "estado": "MT", "latitude": -15.6014, "longitude": -56.0949},
  {"nome": "Curitiba", "estado": "PR", "latitude": -25.428954, "longitude": -49.271133},
  {"nome": "Florianópolis", "estado": "SC", "latitude": -27.594870, "longitude": -48.548222},
  {"nome": "Fortaleza", "estado": "CE", "latitude": -3.731904, "longitude": -38.526669},
  {"nome": "Goiânia", "estado": "GO", "latitude": -16.686891, "longitude": -49.264793},
  {"nome": "João Pessoa", "estado": "PB", "latitude": -7.119496, "longitude": -34.845012},
  {"nome": "Macapá", "estado": "AP", "latitude": 0.0389, "longitude": -51.0664},
  {"nome": "Maceió", "estado": "AL", "latitude": -9.66583, "longitude": -35.735278},
  {"nome": "Manaus", "estado": "AM", "latitude": -3.119028, "longitude": -60.021732},
  {"nome": "Natal", "estado": "RN", "latitude": -5.782550, "longitude": -35.209930},
  {"nome": "Palmas", "estado": "TO", "latitude": -10.2128, "longitude": -48.3603},
  {"nome": "Porto Alegre", "estado": "RS", "latitude": -30.034644, "longitude": -51.217659},
  {"nome": "Porto Velho", "estado": "RO", "latitude": -8.76191, "longitude": -63.9039},
  {"nome": "Recife", "estado": "PE", "latitude": -8.057838, "longitude": -34.882896},
  {"nome": "Rio Branco", "estado": "AC", "latitude": -9.97495, "longitude": -67.8243},
  {"nome": "Rio de Janeiro", "estado": "RJ", "latitude": -22.906847, "longitude": -43.172897},
  {"nome": "Salvador", "estado": "BA", "latitude": -12.977749, "longitude": -38.501633},
  {"nome": "São Luís", "estado": "MA", "latitude": -2.53073, "longitude": -44.3068},
  {"nome": "São Paulo", "estado": "SP", "latitude": -23.550520, "longitude": -46.633308},
  {"nome": "Teresina", "estado": "PI", "latitude": -5.09194, "longitude": -42.8034},
  {"nome": "Vitória", "estado": "ES", "latitude": -20.3155, "longitude": -40.3128}
]